$GPGGA,155654.999,5203.402,N,00930.445,W,1,12,1.0,0.0,M,0.0,M,,*7E
$GPGSA,A,3,01,02,03,04,05,06,07,08,09,10,11,12,1.0,1.0,1.0*30
$GPRMC,155654.999,A,5203.402,N,00930.445,W,029.7,311.2,260521,000.0,W*65
$GPGGA,155655.999,5203.409,N,00930.453,W,1,12,1.0,0.0,M,0.0,M,,*73
$GPGSA,A,3,01,02,03,04,05,06,07,08,09,10,11,12,1.0,1.0,1.0*30
$GPRMC,155655.999,A,5203.409,N,00930.453,W,040.9,317.8,260521,000.0,W*65
$GPGGA,155656.999,5203.419,N,00930.462,W,1,12,1.0,0.0,M,0.0,M,,*73
$GPGSA,A,3,01,02,03,04,05,06,07,08,09,10,11,12,1.0,1.0,1.0*30
$GPRMC,155656.999,A,5203.419,N,00930.462,W,014.3,000.0,260521,000.0,W*63
$GPGGA,155657.999,5203.423,N,00930.462,W,1,12,1.0,0.0,M,0.0,M,,*7B
$GPGSA,A,3,01,02,03,04,05,06,07,08,09,10,11,12,1.0,1.0,1.0*30
$GPRMC,155657.999,A,5203.423,N,00930.462,W,019.4,310.3,260521,000.0,W*60
$GPGGA,155658.999,5203.427,N,00930.467,W,1,12,1.0,0.0,M,0.0,M,,*75
$GPGSA,A,3,01,02,03,04,05,06,07,08,09,10,11,12,1.0,1.0,1.0*30
$GPRMC,155658.999,A,5203.427,N,00930.467,W,022.3,306.5,260521,000.0,W*60
$GPGGA,155659.999,5203.432,N,00930.474,W,1,12,1.0,0.0,M,0.0,M,,*72
$GPGSA,A,3,01,02,03,04,05,06,07,08,09,10,11,12,1.0,1.0,1.0*30
$GPRMC,155659.999,A,5203.432,N,00930.474,W,036.1,281.6,260521,000.0,W*6D
$GPGGA,155700.999,5203.435,N,00930.489,W,1,12,1.0,0.0,M,0.0,M,,*7A
$GPGSA,A,3,01,02,03,04,05,06,07,08,09,10,11,12,1.0,1.0,1.0*30
$GPRMC,155700.999,A,5203.435,N,00930.489,W,025.7,270.0,260521,000.0,W*69
$GPGGA,155701.999,5203.435,N,00930.501,W,1,12,1.0,0.0,M,0.0,M,,*7A
$GPGSA,A,3,01,02,03,04,05,06,07,08,09,10,11,12,1.0,1.0,1.0*30
$GPRMC,155701.999,A,5203.435,N,00930.501,W,072.7,263.0,260521,000.0,W*69
$GPGGA,155702.999,5203.431,N,00930.533,W,1,12,1.0,0.0,M,0.0,M,,*7C
$GPGSA,A,3,01,02,03,04,05,06,07,08,09,10,11,12,1.0,1.0,1.0*30
$GPRMC,155702.999,A,5203.431,N,00930.533,W,058.2,259.2,260521,000.0,W*69
$GPGGA,155703.999,5203.426,N,00930.558,W,1,12,1.0,0.0,M,0.0,M,,*76
$GPGSA,A,3,01,02,03,04,05,06,07,08,09,10,11,12,1.0,1.0,1.0*30
$GPRMC,155703.999,A,5203.426,N,00930.558,W,037.1,270.0,260521,000.0,W*60
$GPGGA,155704.999,5203.426,N,00930.575,W,1,12,1.0,0.0,M,0.0,M,,*7E
$GPGSA,A,3,01,02,03,04,05,06,07,08,09,10,11,12,1.0,1.0,1.0*30
$GPRMC,155704.999,A,5203.426,N,00930.575,W,022.5,258.4,260521,000.0,W*66
$GPGGA,155705.999,5203.424,N,00930.584,W,1,12,1.0,0.0,M,0.0,M,,*73
$GPGSA,A,3,01,02,03,04,05,06,07,08,09,10,11,12,1.0,1.0,1.0*30
$GPRMC,155705.999,A,5203.424,N,00930.584,W,043.3,259.2,260521,000.0,W*6D
$GPGGA,155706.999,5203.421,N,00930.603,W,1,12,1.0,0.0,M,0.0,M,,*79
$GPGSA,A,3,01,02,03,04,05,06,07,08,09,10,11,12,1.0,1.0,1.0*30
$GPRMC,155706.999,A,5203.421,N,00930.603,W,019.4,259.2,260521,000.0,W*6F
$GPGGA,155707.999,5203.419,N,00930.611,W,1,12,1.0,0.0,M,0.0,M,,*70
$GPGSA,A,3,01,02,03,04,05,06,07,08,09,10,11,12,1.0,1.0,1.0*30
$GPRMC,155707.999,A,5203.419,N,00930.611,W,011.5,265.6,260521,000.0,W*64
$GPGGA,155708.999,5203.419,N,00930.617,W,1,12,1.0,0.0,M,0.0,M,,*79
$GPGSA,A,3,01,02,03,04,05,06,07,08,09,10,11,12,1.0,1.0,1.0*30
$GPRMC,155708.999,A,5203.419,N,00930.617,W,032.8,268.5,260521,000.0,W*6F
$GPGGA,155709.999,5203.418,N,00930.631,W,1,12,1.0,0.0,M,0.0,M,,*7D
$GPGSA,A,3,01,02,03,04,05,06,07,08,09,10,11,12,1.0,1.0,1.0*30
$GPRMC,155709.999,A,5203.418,N,00930.631,W,038.9,254.8,260521,000.0,W*62
$GPGGA,155710.999,5203.414,N,00930.647,W,1,12,1.0,0.0,M,0.0,M,,*78
$GPGSA,A,3,01,02,03,04,05,06,07,08,09,10,11,12,1.0,1.0,1.0*30
$GPRMC,155710.999,A,5203.414,N,00930.647,W,028.0,156.9,260521,000.0,W*6F
$GPGGA,155711.999,5203.406,N,00930.644,W,1,12,1.0,0.0,M,0.0,M,,*79
$GPGSA,A,3,01,02,03,04,05,06,07,08,09,10,11,12,1.0,1.0,1.0*30
$GPRMC,155711.999,A,5203.406,N,00930.644,W,021.7,145.2,260521,000.0,W*69
$GPGGA,155712.999,5203.401,N,00930.640,W,1,12,1.0,0.0,M,0.0,M,,*79
$GPGSA,A,3,01,02,03,04,05,06,07,08,09,10,11,12,1.0,1.0,1.0*30
$GPRMC,155712.999,A,5203.401,N,00930.640,W,065.9,147.4,260521,000.0,W*63
$GPGGA,155713.999,5203.384,N,00930.629,W,1,12,1.0,0.0,M,0.0,M,,*7D
$GPGSA,A,3,01,02,03,04,05,06,07,08,09,10,11,12,1.0,1.0,1.0*30
$GPRMC,155713.999,A,5203.384,N,00930.629,W,024.4,265.8,260521,000.0,W*60
$GPGGA,155714.999,5203.383,N,00930.640,W,1,12,1.0,0.0,M,0.0,M,,*72
$GPGSA,A,3,01,02,03,04,05,06,07,08,09,10,11,12,1.0,1.0,1.0*30
$GPRMC,155714.999,A,5203.383,N,00930.640,W,054.9,254.2,260521,000.0,W*6D
$GPGGA,155715.999,5203.377,N,00930.663,W,1,12,1.0,0.0,M,0.0,M,,*79
$GPGSA,A,3,01,02,03,04,05,06,07,08,09,10,11,12,1.0,1.0,1.0*30
$GPRMC,155715.999,A,5203.377,N,00930.663,W,015.2,234.8,260521,000.0,W*64
$GPGGA,155716.999,5203.373,N,00930.667,W,1,12,1.0,0.0,M,0.0,M,,*7A
$GPGSA,A,3,01,02,03,04,05,06,07,08,09,10,11,12,1.0,1.0,1.0*30
$GPRMC,155716.999,A,5203.373,N,00930.667,W,019.0,261.9,260521,000.0,W*68
$GPGGA,155717.999,5203.372,N,00930.676,W,1,12,1.0,0.0,M,0.0,M,,*7A
$GPGSA,A,3,01,02,03,04,05,06,07,08,09,10,11,12,1.0,1.0,1.0*30
$GPRMC,155717.999,A,5203.372,N,00930.676,W,026.3,262.2,260521,000.0,W*6F
$GPGGA,155718.999,5203.371,N,00930.687,W,1,12,1.0,0.0,M,0.0,M,,*78
$GPGSA,A,3,01,02,03,04,05,06,07,08,09,10,11,12,1.0,1.0,1.0*30
$GPRMC,155718.999,A,5203.371,N,00930.687,W,022.8,270.0,260521,000.0,W*63
$GPGGA,155719.999,5203.371,N,00930.698,W,1,12,1.0,0.0,M,0.0,M,,*77
$GPGSA,A,3,01,02,03,04,05,06,07,08,09,10,11,12,1.0,1.0,1.0*30
$GPRMC,155719.999,A,5203.371,N,00930.698,W,035.3,261.2,260521,000.0,W*63
$GPGGA,155720.999,5203.368,N,00930.713,W,1,12,1.0,0.0,M,0.0,M,,*77
$GPGSA,A,3,01,02,03,04,05,06,07,08,09,10,11,12,1.0,1.0,1.0*30
$GPRMC,155720.999,A,5203.368,N,00930.713,W,023.0,250.6,260521,000.0,W*61
$GPGGA,155721.999,5203.365,N,00930.722,W,1,12,1.0,0.0,M,0.0,M,,*79
$GPGSA,A,3,01,02,03,04,05,06,07,08,09,10,11,12,1.0,1.0,1.0*30
$GPRMC,155721.999,A,5203.365,N,00930.722,W,029.7,246.4,260521,000.0,W*67
$GPGGA,155722.999,5203.360,N,00930.733,W,1,12,1.0,0.0,M,0.0,M,,*7F
$GPGSA,A,3,01,02,03,04,05,06,07,08,09,10,11,12,1.0,1.0,1.0*30
$GPRMC,155722.999,A,5203.360,N,00930.733,W,052.3,162.5,260521,000.0,W*6D
$GPGGA,155723.999,5203.346,N,00930.729,W,1,12,1.0,0.0,M,0.0,M,,*71
$GPGSA,A,3,01,02,03,04,05,06,07,08,09,10,11,12,1.0,1.0,1.0*30
$GPRMC,155723.999,A,5203.346,N,00930.729,W,032.6,145.2,260521,000.0,W*62
$GPGGA,155724.999,5203.338,N,00930.723,W,1,12,1.0,0.0,M,0.0,M,,*75
$GPGSA,A,3,01,02,03,04,05,06,07,08,09,10,11,12,1.0,1.0,1.0*30
$GPRMC,155724.999,A,5203.338,N,00930.723,W,049.5,082.8,260521,000.0,W*69
$GPGGA,155725.999,5203.341,N,00930.701,W,1,12,1.0,0.0,M,0.0,M,,*7A
$GPGSA,A,3,01,02,03,04,05,06,07,08,09,10,11,12,1.0,1.0,1.0*30
$GPRMC,155725.999,A,5203.341,N,00930.701,W,043.6,083.0,260521,000.0,W*66
$GPGGA,155726.999,5203.343,N,00930.682,W,1,12,1.0,0.0,M,0.0,M,,*71
$GPGSA,A,3,01,02,03,04,05,06,07,08,09,10,11,12,1.0,1.0,1.0*30
$GPRMC,155726.999,A,5203.343,N,00930.682,W,044.8,084.3,260521,000.0,W*60
$GPGGA,155727.999,5203.345,N,00930.662,W,1,12,1.0,0.0,M,0.0,M,,*78
$GPGSA,A,3,01,02,03,04,05,06,07,08,09,10,11,12,1.0,1.0,1.0*30
$GPRMC,155727.999,A,5203.345,N,00930.662,W,044.2,091.1,260521,000.0,W*65
$GPGGA,155728.999,5203.345,N,00930.642,W,1,12,1.0,0.0,M,0.0,M,,*75
$GPGSA,A,3,01,02,03,04,05,06,07,08,09,10,11,12,1.0,1.0,1.0*30
$GPRMC,155728.999,A,5203.345,N,00930.642,W,068.8,081.8,260521,000.0,W*64
$GPGGA,155729.999,5203.349,N,00930.611,W,1,12,1.0,0.0,M,0.0,M,,*7E
$GPGSA,A,3,01,02,03,04,05,06,07,08,09,10,11,12,1.0,1.0,1.0*30
$GPRMC,155729.999,A,5203.349,N,00930.611,W,020.0,090.0,260521,000.0,W*63
$GPGGA,155730.999,5203.349,N,00930.602,W,1,12,1.0,0.0,M,0.0,M,,*74
$GPGSA,A,3,01,02,03,04,05,06,07,08,09,10,11,12,1.0,1.0,1.0*30
$GPRMC,155730.999,A,5203.349,N,00930.602,W,038.9,084.8,260521,000.0,W*64
$GPGGA,155731.999,5203.351,N,00930.585,W,1,12,1.0,0.0,M,0.0,M,,*70
$GPGSA,A,3,01,02,03,04,05,06,07,08,09,10,11,12,1.0,1.0,1.0*30
$GPRMC,155731.999,A,5203.351,N,00930.585,W,041.9,078.8,260521,000.0,W*6D
$GPGGA,155732.999,5203.354,N,00930.567,W,1,12,1.0,0.0,M,0.0,M,,*7A
$GPGSA,A,3,01,02,03,04,05,06,07,08,09,10,11,12,1.0,1.0,1.0*30
$GPRMC,155732.999,A,5203.354,N,00930.567,W,028.0,080.8,260521,000.0,W*66
$GPGGA,155733.999,5203.356,N,00930.555,W,1,12,1.0,0.0,M,0.0,M,,*78
$GPGSA,A,3,01,02,03,04,05,06,07,08,09,10,11,12,1.0,1.0,1.0*30
$GPRMC,155733.999,A,5203.356,N,00930.555,W,027.7,067.0,260521,000.0,W*6D
$GPGGA,155734.999,5203.360,N,00930.544,W,1,12,1.0,0.0,M,0.0,M,,*7A
$GPGSA,A,3,01,02,03,04,05,06,07,08,09,10,11,12,1.0,1.0,1.0*30
$GPRMC,155734.999,A,5203.360,N,00930.544,W,029.9,000.0,260521,000.0,W*6E
$GPGGA,155735.999,5203.369,N,00930.544,W,1,12,1.0,0.0,M,0.0,M,,*72
$GPGSA,A,3,01,02,03,04,05,06,07,08,09,10,11,12,1.0,1.0,1.0*30
$GPRMC,155735.999,A,5203.369,N,00930.544,W,025.7,067.6,260521,000.0,W*63
$GPGGA,155736.999,5203.373,N,00930.535,W,1,12,1.0,0.0,M,0.0,M,,*7C
$GPGSA,A,3,01,02,03,04,05,06,07,08,09,10,11,12,1.0,1.0,1.0*30
$GPRMC,155736.999,A,5203.373,N,00930.535,W,040.8,082.5,260521,000.0,W*69
$GPGGA,155737.999,5203.375,N,00930.517,W,1,12,1.0,0.0,M,0.0,M,,*7B
$GPGSA,A,3,01,02,03,04,05,06,07,08,09,10,11,12,1.0,1.0,1.0*30
$GPRMC,155737.999,A,5203.375,N,00930.517,W,037.1,088.6,260521,000.0,W*6E
$GPGGA,155738.999,5203.375,N,00930.500,W,1,12,1.0,0.0,M,0.0,M,,*72
$GPGSA,A,3,01,02,03,04,05,06,07,08,09,10,11,12,1.0,1.0,1.0*30
$GPRMC,155738.999,A,5203.375,N,00930.500,W,037.8,083.2,260521,000.0,W*61
$GPGGA,155739.999,5203.377,N,00930.483,W,1,12,1.0,0.0,M,0.0,M,,*7B
$GPGSA,A,3,01,02,03,04,05,06,07,08,09,10,11,12,1.0,1.0,1.0*30
$GPRMC,155739.999,A,5203.377,N,00930.483,W,034.3,333.8,260521,000.0,W*62
$GPGGA,155740.999,5203.387,N,00930.488,W,1,12,1.0,0.0,M,0.0,M,,*71
$GPGSA,A,3,01,02,03,04,05,06,07,08,09,10,11,12,1.0,1.0,1.0*30
$GPRMC,155740.999,A,5203.387,N,00930.488,W,037.0,024.4,260521,000.0,W*61
$GPGGA,155741.999,5203.396,N,00930.483,W,1,12,1.0,0.0,M,0.0,M,,*7B
$GPGSA,A,3,01,02,03,04,05,06,07,08,09,10,11,12,1.0,1.0,1.0*30
$GPRMC,155741.999,A,5203.396,N,00930.483,W,020.3,053.0,260521,000.0,W*6A
$GPGGA,155742.999,5203.401,N,00930.478,W,1,12,1.0,0.0,M,0.0,M,,*75
$GPGSA,A,3,01,02,03,04,05,06,07,08,09,10,11,12,1.0,1.0,1.0*30
$GPRMC,155742.999,A,5203.401,N,00930.478,W,031.7,085.2,260521,000.0,W*69
$GPGGA,155743.999,5203.402,N,00930.463,W,1,12,1.0,0.0,M,0.0,M,,*7D
$GPGSA,A,3,01,02,03,04,05,06,07,08,09,10,11,12,1.0,1.0,1.0*30
$GPRMC,155743.999,A,5203.402,N,00930.463,W,031.4,090.0,260521,000.0,W*64
$GPGGA,155744.999,5203.402,N,00930.449,W,1,12,1.0,0.0,M,0.0,M,,*72
$GPGSA,A,3,01,02,03,04,05,06,07,08,09,10,11,12,1.0,1.0,1.0*30
$GPRMC,155744.999,A,5203.402,N,00930.449,W,031.4,090.0,260521,000.0,W*6B
